[{"id":"1","name":"Centro Dentale di Maurizio Mastrorosa","address":"209 Via Alessandro Maria Calefati","town":"Bari ","locationstate":"Puglia","country":"Italy","postal":"70122","latitude":"41.123757","longitude":"16.863548","phone":"0805240089"},{"id":"2","name":"Centro Medico Archimede","address":"30 Via Sant'Antonio","town":"Barletta","locationstate":"Puglia","country":"Italy","postal":"76121","latitude":"41.317412","longitude":"16.282465","phone":"0883533396"},{"id":"3","name":"Centro Medico Dentale Loparco Lodeserto","address":"75 Via dei Giardini","town":"Cisternino","locationstate":"Puglia","country":"Italy","postal":"72014","latitude":"40.739364","longitude":"17.430298","phone":"3475914716"},{"id":"4","name":"Centro Odontoiatrico NOVADENT delle dott.sse Fiore e Incampo","address":"28 Via Saluzzo","town":"Altamura","locationstate":"Puglia","country":"Italy","postal":"70022","latitude":"40.8172","longitude":"16.562185","phone":"0804033053"},{"id":"5","name":"Dental Te. Ma. Di Tempesta G. & Magrone V","address":"86 Via Trevisani","town":"Bari","locationstate":"Puglia","country":"Italy","postal":"70122","latitude":"41.123985","longitude":"16.859899","phone":"0805243693"},{"id":"6","name":"Dott. in Odontoiatria e Protesi Mazzarisi Giacomo","address":"37 Via Firenze","town":"Andria","locationstate":"Puglia","country":"Italy","postal":"76123","latitude":"41.230296","longitude":"16.300773","phone":"0883552811"},{"id":"7","name":"Dott.ssa Latiano Marisa","address":"3 Via Gian Lorenzo Bernini","town":"San Giovanni Rotondo","locationstate":"Puglia","country":"Italy","postal":"71013","latitude":"41.704463","longitude":"15.723771","phone":"0882601327"},{"id":"8","name":"Studio Dentistico dott.ssa Maria Luisa del Vescovo","address":"3 Via Luigi la Vista","town":"Molfetta","locationstate":"Puglia","country":"Italy","postal":"70056","latitude":"41.201552","longitude":"16.601528","phone":"0803976164"},{"id":"9","name":"Dott.ssa Emanuela Dantona","address":"147 Via A. de Gasperi","town":"Carosino","locationstate":"Puglia","country":"Italy","postal":"74021","latitude":"40.460842","longitude":"17.394105","phone":""},{"id":"10","name":"Dott. Giuseppe Tucci Odontoiatria","address":"10 Via Puglia","town":"Cerignola","locationstate":"Puglia","country":"Italy","postal":"71042","latitude":"41.26214","longitude":"15.902995","phone":"0885415783"},{"id":"11","name":"Dott.ssa Licia Lupinacci","address":"SNC Piazza della repubblica","town":"Lamezia Terme","locationstate":"Calabria","country":"Italy","postal":"88046","latitude":"38.970494","longitude":"16.314787","phone":"3284383649"},{"id":"12","name":"Clinica Odontoiatrica Lopriore","address":"2 Via Conghia","town":"Monopoli","locationstate":"Puglia","country":"Italy","postal":"70043","latitude":"40.942356","longitude":"17.303715","phone":"0808595581"},{"id":"13","name":"Specialista in Ortodonzia dott. Alessandro Luotto","address":"173 Via Campania","town":"Taranto","locationstate":"Puglia","country":"Italy","postal":"74121","latitude":"40.454615","longitude":"17.25625","phone":"099376003"},{"id":"14","name":"Studio Dentistico dott.ssa Capparelli Maria Matilde","address":"6 Via Pescheria","town":"Trebisacce","locationstate":"Calabria","country":"Italy","postal":"87075","latitude":"39.863366","longitude":"16.531111","phone":"0981500027"},{"id":"15","name":"Studio Dentistico dott. Alessandra Campobasso","address":"43 Via San Francesco D'Assisi","town":"Bari","locationstate":"Puglia","country":"Italy","postal":"70122","latitude":"41.126904","longitude":"16.864276","phone":"0805242733"},{"id":"16","name":"Studio Dentistico dott. Alessandra Sartorio","address":"2 Vicolo Manduria","town":"Oria","locationstate":"Puglia","country":"Italy","postal":"72024","latitude":"40.495578","longitude":"17.643922","phone":"0831848779"},{"id":"17","name":"Studio Dentistico dott. Antonella Melpignano","address":"63 Via Regina Elena","town":"Francavilla Fontana","locationstate":"Puglia","country":"Italy","postal":"72021","latitude":"40.53038","longitude":"17.58297","phone":"3803545843"},{"id":"18","name":"Studio Dentistico dott. Beniamino Camarda","address":"32 Via Paisiello","town":"Fasano","locationstate":"Puglia","country":"Italy","postal":"72015","latitude":"40.83431","longitude":"17.36387","phone":"0804421731"},{"id":"19","name":"Studio Dentistico dott. Bruno Amatore","address":"1 Via Atene","town":"Cutro","locationstate":"Calabria","country":"Italy","postal":"88842","latitude":"39.034697","longitude":"16.988347","phone":""},{"id":"20","name":"Studio Dentistico dott. Carlo Volpe","address":"89 Via Tenente Ugo Granafei","town":"Mesagne","locationstate":"Puglia","country":"Italy","postal":"72023","latitude":"40.562091","longitude":"17.804762","phone":"0831734849"},{"id":"21","name":"Studio Dentistico dott.ssa Elisabetta de Ruvo","address":"27 Via Tenente Marzocca","town":"Molfetta","locationstate":"Puglia","country":"Italy","postal":"70056","latitude":"41.198396","longitude":"16.601715","phone":"0803975707"},{"id":"22","name":"Studio Dentistico dott. Ezio Marco di Vito","address":"38 Via Goffredo Mameli","town":"Sora","locationstate":"Lazio","country":"Italy","postal":"03039","latitude":"41.719129","longitude":"13.609385","phone":"0776832782"},{"id":"23","name":"Studio Dentistico dott. Fabio Ortalizio","address":"48 Pal. g3 Via della Resistenza","town":"Bari","locationstate":"Puglia","country":"Italy","postal":"70125","latitude":"41.105639","longitude":"16.875261","phone":"0805021024"},{"id":"24","name":"Studio Dentistico dott. Felice Fabio Minafra","address":"30 Via Ferri","town":"Ruvo di Puglia","locationstate":"Puglia","country":"Italy","postal":"70037","latitude":"41.117943","longitude":"16.481387","phone":"3926853438"},{"id":"25","name":"Studio Dentistico dott. Gennaro Vitiello","address":"7 Viale Unit\u00e0 D'Italia","town":"Formia","locationstate":"Lazio","country":"Italy","postal":"04023","latitude":"41.254229","longitude":"13.605806","phone":"077126220"},{"id":"26","name":"Studio Dentistico dott. Giuseppe Coluccia","address":"8A Via San Lorenzo da Brindisi","town":"San Pancrazio Salentino","locationstate":"Puglia","country":"Italy","postal":"72026","latitude":"40.418446","longitude":"17.832294","phone":"0831666107"},{"id":"27","name":"Studio Odontoiatrico dott. Sabino Zagaria","address":"15\/D Viale Unit\u00e0 d'Italia","town":"Bari","locationstate":"Puglia","country":"Italy","postal":"70125","latitude":"41.11593","longitude":"16.872938","phone":"0805428042"},{"id":"28","name":"Studio Odontoiatrico dott.ssa Laura Ditano","address":"75 Via Napoli","town":"Bari","locationstate":"Puglia","country":"Italy","postal":"70123","latitude":"41.126855","longitude":"16.860876","phone":"0805231930"},{"id":"29","name":"Studio Odontoiatrico dott. Carofiglio","address":"137 Piazza Umberto I","town":"Bari","locationstate":"Puglia","country":"Italy","postal":"70121","latitude":"41.119761","longitude":"16.869674","phone":"0805219598"},{"id":"30","name":"Studio Odontoiatrico dott. Antonio dell' Aglio","address":"30 Via Salvatore Matarrese","town":"Bari","locationstate":"Puglia","country":"Italy","postal":"70124","latitude":"41.09858","longitude":"16.853735","phone":"0805426554"},{"id":"31","name":"Studio Odontoiatrico Di Bari dei dott. Francesco e Gaetano Di Bari","address":"12 Via Giuseppe di Vagno","town":"Polignano a Mare","locationstate":"Puglia","country":"Italy","postal":"70044","latitude":"40.989902","longitude":"17.224986","phone":"0804247945"},{"id":"32","name":"Studio dott.ssa Dantona Emanuela","address":"15 Via Galliano Maggiore","town":"Torricella","locationstate":"Puglia","country":"Italy","postal":"74020","latitude":"40.355655","longitude":"17.499978","phone":"3934275323"},{"id":"33","name":"Studio Di Odontoiatria dott. Michele Di Monte","address":"75 Via Giovanni Boccaccio","town":"Barletta","locationstate":"Puglia","country":"Italy","postal":"76121","latitude":"41.305561","longitude":"16.28557","phone":"0883390692"},{"id":"34","name":"Studio dott.ssa Catia Ramunni","address":"19 Via Divisione Aqui","town":"Conversano","locationstate":"Puglia","country":"Italy","postal":"70014","latitude":"40.968836","longitude":"17.108246","phone":"0804959475"},{"id":"35","name":"Studio Dentistico Ma.de.ro DENTAL srl","address":"35 Via San Sebastiano","town":"Altamura","locationstate":"Puglia","country":"Italy","postal":"70022","latitude":"40.821487","longitude":"16.549577","phone":"0803146221"},{"id":"36","name":"Studio Dentistico Dragonetti","address":"55 Via Lisbona","town":"Potenza","locationstate":"Basilicata","country":"Italy","postal":"85100","latitude":"40.649358","longitude":"15.789984","phone":"0971443025"},{"id":"37","name":"Studio Dentistico dott. Ernesto Russo","address":"7 Via del Pavone","town":"Viterbo","locationstate":"Lazio","country":"Italy","postal":"01100","latitude":"42.420635","longitude":"12.106985","phone":"0761227493"},{"id":"38","name":"Studio Dentistico dott.ssa De Donno Patrizia","address":"50 Via Giosu\u00e8 Carducci","town":"Ruffano","locationstate":"Puglia","country":"Italy","postal":"73049","latitude":"39.988163","longitude":"18.244841","phone":"0833693430"},{"id":"39","name":"Studio Dentistico dott.ssa Dantona Emanuela","address":"73 Via Sant'Antonio","town":"Manduria","locationstate":"Puglia","country":"Italy","postal":"74024","latitude":"40.405279","longitude":"17.642048","phone":"3474530448"},{"id":"40","name":"Studio Dentistico dott. Vitantonio Demonte","address":"6 Via Van Westerhout","town":"Mola di Bari","locationstate":"Puglia","country":"Italy","postal":"70042","latitude":"41.061278","longitude":"17.090119","phone":"0804733846"},{"id":"41","name":"Studio Dentistico dott.ssa Valeria Volpe","address":"44 Via Giacomo Matteotti","town":"Triggiano","locationstate":"Puglia","country":"Italy","postal":"70019","latitude":"41.064653","longitude":"16.930304","phone":"0804621354"},{"id":"42","name":"Studio Dentistico dott. ssa Anna Lisa Valenzano","address":"16 Via Ambasciatore Attolico","town":"Adelfia","locationstate":"Puglia","country":"Italy","postal":"70010","latitude":"41.00467","longitude":"16.866473","phone":"0804593532"},{"id":"43","name":"Studio Dentistico dott. Salvatore Rigliaco","address":"336 Via Principe Amedeo","town":"Taranto","locationstate":"Puglia","country":"Italy","postal":"74121","latitude":"40.467543","longitude":"17.254035","phone":"0999942196"},{"id":"44","name":"Studio Dentistico dott.ssa Rosita Recchiuto","address":"22D Via Guglielmo Marconi","town":"Monopoli","locationstate":"Puglia","country":"Italy","postal":"70043","latitude":"40.951723","longitude":"17.296725","phone":"080747692"},{"id":"45","name":"Studio Dentistico dott.ssa Rosalba Marzulli","address":"128 Viale della Repubblica","town":"Bari","locationstate":"Puglia","country":"Italy","postal":"70125","latitude":"41.107481","longitude":"16.874675","phone":"0805422579"},{"id":"46","name":"Studio Dentistico dott.ssa Raissa Tatulli","address":"3 Via Barsento","town":"Alberobello","locationstate":"Puglia","country":"Italy","postal":"70011","latitude":"40.784734","longitude":"17.232352","phone":"0804323324"},{"id":"47","name":"Studio Dentistico dott. Palmino Canfora","address":"141 Via Geremia di Scanno","town":"Barletta","locationstate":"Puglia","country":"Italy","postal":"76121","latitude":"41.318475","longitude":"16.282761","phone":"0883532044"},{"id":"48","name":"Studio Dentistico dott. Nicola Zizzo","address":"20 Via Umbria","town":"Taranto","locationstate":"Puglia","country":"Italy","postal":"74121","latitude":"40.459644","longitude":"17.252302","phone":"099331898"},{"id":"49","name":"Studio Dentistico dott.ssa Marisa Conenna","address":"28 Via Fiume","town":"Mola di Bari","locationstate":"Puglia","country":"Italy","postal":"70042","latitude":"41.056653","longitude":"17.085867","phone":"0804741275"},{"id":"50","name":"Studio Dentistico dott. Mario Ventrella","address":"25 Via Salvatore Cognetti","town":"Bari","locationstate":"Puglia","country":"Italy","postal":"70100","latitude":"41.123049","longitude":"16.873384","phone":"0805214433"},{"id":"51","name":"Studio Dentistico dott.ssa Mariagrazia Colangione","address":"20 Via Salvatore Matarrese","town":"Bari","locationstate":"Puglia","country":"Italy","postal":"70124","latitude":"41.098546","longitude":"16.853689","phone":""},{"id":"52","name":"Studio Dentistico dott.ssa Lea Fugale","address":"15 Via Monsignor Domenico Orlando","town":"Catania","locationstate":"Sicilia","country":"Italy","postal":"95126","latitude":"37.533027","longitude":"15.106733","phone":"095493895"},{"id":"53","name":"Studio Dentistico dott. Giuseppe Pezzolla","address":"70 Via Artigianato","town":"Fasano","locationstate":"Puglia","country":"Italy","postal":"72015","latitude":"40.833229","longitude":"17.3653","phone":"0804425096"},{"id":"54","name":"Studio Dentistico dott. Ciro Zizzo","address":"20 Via Umbria","town":"Taranto","locationstate":"Puglia","country":"Italy","postal":"74121","latitude":"40.459773","longitude":"17.252526","phone":""},{"id":"55","name":"Mediterraneo Medical Center dott. Giuseppe Scarlino","address":"15 Via Angelo Berardi","town":"Taranto","locationstate":"Puglia","country":"Italy","postal":"74123","latitude":"40.470454","longitude":"17.243136","phone":"0994596716"},{"id":"56","name":"Studio Dentistico dott.ssa Latiano Marisa","address":"2 Viale Aldo Moro","town":"San Giovanni Rotondo","locationstate":"Puglia","country":"Italy","postal":"71013","latitude":"41.706884","longitude":"15.720808","phone":"0882601327"},{"id":"57","name":"Studio Odontoiatrico dott. Michele Rinaldi","address":"91 Via Francesco Perrese","town":"Bitonto","locationstate":"Puglia","country":"Italy","postal":"70032","latitude":"41.112058","longitude":"16.691286","phone":"0803749326"},{"id":"58","name":"Studio Dentistico Associato dott. Girone - Amoroso D'Aragona","address":"102 Via de Rossi","town":"Bari","locationstate":"Puglia","country":"Italy","postal":"70122","latitude":"41.12254","longitude":"16.86541","phone":"0805241694"},{"id":"59","name":"Studio Dentistico dott. Antonio Taddonio","address":"2 Via Aldo Moro","town":"Rapolla","locationstate":"Basilicata","country":"Italy","postal":"85027","latitude":"40.977268","longitude":"15.672382","phone":""},{"id":"60","name":"Studio Dentistico dott.ssa De Rosa","address":"7 Via Luigi Einaudi","town":"Matera","locationstate":"Basilicata","country":"Italy","postal":"75100","latitude":"40.66885","longitude":"16.597657","phone":"3398622359"},{"id":"61","name":"Studio Dentistico Episcopo dott. Massimiliano ","address":"21 Via Adelfia","town":"Casamassima","locationstate":"Puglia","country":"Italy","postal":"70010","latitude":"40.958819","longitude":"16.914943","phone":"080673282"},{"id":"62","name":"Studio dott.ssa Dantona Emanuela","address":"15 Via Galliano Maggiore","town":"Torricella","locationstate":"Puglia","country":"Italy","postal":"74020","latitude":"40.355655","longitude":"17.499978","phone":"3934275323"},{"id":"63","name":"ATE Clinics","address":"3\/e Strada Torino","town":"Beinasco","locationstate":"Piemonte","country":"Italy","postal":"10092","latitude":"45.022059","longitude":"7.583199","phone":"01119480374"},{"id":"64","name":"Studio Dentistico dott. Filippello Daniele","address":"17 Via Cusmano","town":"Santo Stefano Quisquina","locationstate":"Sicilia","country":"Italy","postal":"92020","latitude":"37.623368","longitude":"13.492551","phone":"3331007846"},{"id":"65","name":"Studio Dentistico dott. Filippello Daniele","address":"62 Via Rosolino Pilo","town":"Canicatt\u00ec","locationstate":"Sicilia","country":"Italy","postal":"92024","latitude":"37.362238","longitude":"13.852836","phone":""},{"id":"66","name":"Studio Dentistico dott.ssa Putignano","address":"24 Corso Giuseppe Garibaldi","town":"Brindisi","locationstate":"Puglia","country":"Italy","postal":"72100","latitude":"40.637552","longitude":"17.946437","phone":""},{"id":"67","name":"Centro Dentale Grotte","address":"Via Putignano 92","town":"Castellana Grotte","locationstate":"Puglia","country":"Italy","postal":"70013","latitude":"40.878693","longitude":"17.158145","phone":"0806455810"}]